{"type": "FeatureCollection", "features": [{"type": "Feature", "geometry": {"type": "Point", "coordinates": [-121.797621, 46.950119]}, "properties": {"title": "Carbon River Camp", "description": "Trailside Camps | Carbon River Area Camps", "marker-color": "#2E8B57", "marker-symbol": "point"}}, {"type": "Feature", "geometry": {"type": "Point", "coordinates": [-121.797621, 46.950119]}, "properties": {"title": "Carbon River Camp (Group Site)", "description": "Trailside Camps | Carbon River Area Camps", "marker-color": "#2E8B57", "marker-symbol": "point"}}, {"type": "Feature", "geometry": {"type": "Point", "coordinates": [-121.808364, 46.938587]}, "properties": {"title": "Cataract Valley Camp", "description": "Trailside Camps | Carbon River Area Camps", "marker-color": "#2E8B57", "marker-symbol": "point"}}, {"type": "Feature", "geometry": {"type": "Point", "coordinates": [-121.808364, 46.938587]}, "properties": {"title": "Cataract Valley Camp (Group Site)", "description": "Trailside Camps | Carbon River Area Camps", "marker-color": "#2E8B57", "marker-symbol": "point"}}, {"type": "Feature", "geometry": {"type": "Point", "coordinates": [-121.78296, 46.940605]}, "properties": {"title": "Dick Creek Camp", "description": "Trailside Camps | Carbon River Area Camps", "marker-color": "#2E8B57", "marker-symbol": "point"}}, {"type": "Feature", "geometry": {"type": "Point", "coordinates": [-121.845505, 46.916083]}, "properties": {"title": "Eagle's Roost Camp", "description": "Trailside Camps | Carbon River Area Camps", "marker-color": "#2E8B57", "marker-symbol": "point"}}, {"type": "Feature", "geometry": {"type": "Point", "coordinates": [-121.70359, 46.966893]}, "properties": {"title": "Fire Creek Camp", "description": "Trailside Camps | Carbon River Area Camps", "marker-color": "#2E8B57", "marker-symbol": "point"}}, {"type": "Feature", "geometry": {"type": "Point", "coordinates": [-121.70359, 46.966893]}, "properties": {"title": "Fire Creek Camp (Group Site)", "description": "Trailside Camps | Carbon River Area Camps", "marker-color": "#2E8B57", "marker-symbol": "point"}}, {"type": "Feature", "geometry": {"type": "Point", "coordinates": [-121.712414, 46.920405]}, "properties": {"title": "Granite Creek Camp", "description": "Trailside Camps | Carbon River Area Camps", "marker-color": "#2E8B57", "marker-symbol": "point"}}, {"type": "Feature", "geometry": {"type": "Point", "coordinates": [-121.712414, 46.920405]}, "properties": {"title": "Granite Creek Camp (Group Site)", "description": "Trailside Camps | Carbon River Area Camps", "marker-color": "#2E8B57", "marker-symbol": "point"}}, {"type": "Feature", "geometry": {"type": "Point", "coordinates": [-121.830218, 46.975476]}, "properties": {"title": "Ipsut Creek Camp", "description": "Trailside Camps | Carbon River Area Camps", "marker-color": "#2E8B57", "marker-symbol": "point"}}, {"type": "Feature", "geometry": {"type": "Point", "coordinates": [-121.830218, 46.975476]}, "properties": {"title": "Ipsut Creek Camp (Group Site)", "description": "Trailside Camps | Carbon River Area Camps", "marker-color": "#2E8B57", "marker-symbol": "point"}}, {"type": "Feature", "geometry": {"type": "Point", "coordinates": [-121.732333, 46.966699]}, "properties": {"title": "James Camp", "description": "Trailside Camps | Carbon River Area Camps", "marker-color": "#2E8B57", "marker-symbol": "point"}}, {"type": "Feature", "geometry": {"type": "Point", "coordinates": [-121.732333, 46.966699]}, "properties": {"title": "James Camp (Group Site)", "description": "Trailside Camps | Carbon River Area Camps", "marker-color": "#2E8B57", "marker-symbol": "point"}}, {"type": "Feature", "geometry": {"type": "Point", "coordinates": [-121.863243, 46.932795]}, "properties": {"title": "Mowich Lake Camp", "description": "Trailside Camps | Carbon River Area Camps", "marker-color": "#2E8B57", "marker-symbol": "point"}}, {"type": "Feature", "geometry": {"type": "Point", "coordinates": [-121.863243, 46.932795]}, "properties": {"title": "Mowich Lake Camp (Group Site)", "description": "Trailside Camps | Carbon River Area Camps", "marker-color": "#2E8B57", "marker-symbol": "point"}}, {"type": "Feature", "geometry": {"type": "Point", "coordinates": [-121.749628, 46.915121]}, "properties": {"title": "Mystic Camp", "description": "Trailside Camps | Carbon River Area Camps", "marker-color": "#2E8B57", "marker-symbol": "point"}}, {"type": "Feature", "geometry": {"type": "Point", "coordinates": [-121.749628, 46.915121]}, "properties": {"title": "Mystic Camp (Group Site)", "description": "Trailside Camps | Carbon River Area Camps", "marker-color": "#2E8B57", "marker-symbol": "point"}}, {"type": "Feature", "geometry": {"type": "Point", "coordinates": [-121.894089, 46.91524]}, "properties": {"title": "So. Mowich River Camp", "description": "Trailside Camps | Carbon River Area Camps", "marker-color": "#2E8B57", "marker-symbol": "point"}}, {"type": "Feature", "geometry": {"type": "Point", "coordinates": [-121.894089, 46.91524]}, "properties": {"title": "So. Mowich River Camp (Group Site)", "description": "Trailside Camps | Carbon River Area Camps", "marker-color": "#2E8B57", "marker-symbol": "point"}}, {"type": "Feature", "geometry": {"type": "Point", "coordinates": [-121.767346, 46.959705]}, "properties": {"title": "Yellowstone Cliffs Camp", "description": "Trailside Camps | Carbon River Area Camps", "marker-color": "#2E8B57", "marker-symbol": "point"}}, {"type": "Feature", "geometry": {"type": "Point", "coordinates": [-121.904112, 46.879728]}, "properties": {"title": "Golden Lakes Camp", "description": "Trailside Camps | Longmire Area Camps", "marker-color": "#2E8B57", "marker-symbol": "point"}}, {"type": "Feature", "geometry": {"type": "Point", "coordinates": [-121.904112, 46.879728]}, "properties": {"title": "Golden Lakes Camp (Group Site)", "description": "Trailside Camps | Longmire Area Camps", "marker-color": "#2E8B57", "marker-symbol": "point"}}, {"type": "Feature", "geometry": {"type": "Point", "coordinates": [-121.877423, 46.835986]}, "properties": {"title": "Klapatche Park Camp", "description": "Trailside Camps | Longmire Area Camps", "marker-color": "#2E8B57", "marker-symbol": "point"}}, {"type": "Feature", "geometry": {"type": "Point", "coordinates": [-121.902798, 46.792839]}, "properties": {"title": "Lake George Camp", "description": "Trailside Camps | Longmire Area Camps", "marker-color": "#2E8B57", "marker-symbol": "point"}}, {"type": "Feature", "geometry": {"type": "Point", "coordinates": [-121.902798, 46.792839]}, "properties": {"title": "Lake George Camp (Group Site)", "description": "Trailside Camps | Longmire Area Camps", "marker-color": "#2E8B57", "marker-symbol": "point"}}, {"type": "Feature", "geometry": {"type": "Point", "coordinates": [-121.657393, 46.757294]}, "properties": {"title": "Maple Creek Camp", "description": "Trailside Camps | Longmire Area Camps", "marker-color": "#2E8B57", "marker-symbol": "point"}}, {"type": "Feature", "geometry": {"type": "Point", "coordinates": [-121.657393, 46.757294]}, "properties": {"title": "Maple Creek Camp (Group Site)", "description": "Trailside Camps | Longmire Area Camps", "marker-color": "#2E8B57", "marker-symbol": "point"}}, {"type": "Feature", "geometry": {"type": "Point", "coordinates": [-121.869763, 46.846061]}, "properties": {"title": "No. Puyallup River Camp", "description": "Trailside Camps | Longmire Area Camps", "marker-color": "#2E8B57", "marker-symbol": "point"}}, {"type": "Feature", "geometry": {"type": "Point", "coordinates": [-121.869763, 46.846061]}, "properties": {"title": "No. Puyallup River Camp (Group Site)", "description": "Trailside Camps | Longmire Area Camps", "marker-color": "#2E8B57", "marker-symbol": "point"}}, {"type": "Feature", "geometry": {"type": "Point", "coordinates": [-121.7592, 46.7702]}, "properties": {"title": "Paradise River Camp", "description": "Trailside Camps | Longmire Area Camps", "marker-color": "#2E8B57", "marker-symbol": "point"}}, {"type": "Feature", "geometry": {"type": "Point", "coordinates": [-121.7592, 46.7702]}, "properties": {"title": "Paradise River Camp (Group Site)", "description": "Trailside Camps | Longmire Area Camps", "marker-color": "#2E8B57", "marker-symbol": "point"}}, {"type": "Feature", "geometry": {"type": "Point", "coordinates": [-121.809816, 46.780399]}, "properties": {"title": "Pyramid Creek Camp", "description": "Trailside Camps | Longmire Area Camps", "marker-color": "#2E8B57", "marker-symbol": "point"}}, {"type": "Feature", "geometry": {"type": "Point", "coordinates": [-121.698693, 46.758374]}, "properties": {"title": "Snow Lake Camp", "description": "Trailside Camps | Longmire Area Camps", "marker-color": "#2E8B57", "marker-symbol": "point"}}, {"type": "Feature", "geometry": {"type": "Point", "coordinates": [-121.86893, 46.812298]}, "properties": {"title": "So. Puyallup River Camp", "description": "Trailside Camps | Longmire Area Camps", "marker-color": "#2E8B57", "marker-symbol": "point"}}, {"type": "Feature", "geometry": {"type": "Point", "coordinates": [-121.86893, 46.812298]}, "properties": {"title": "So. Puyallup River Camp (Group Site)", "description": "Trailside Camps | Longmire Area Camps", "marker-color": "#2E8B57", "marker-symbol": "point"}}, {"type": "Feature", "geometry": {"type": "Point", "coordinates": [-121.686867, 46.936034]}, "properties": {"title": "Berkeley Park Camp", "description": "Trailside Camps | White River Area Camps", "marker-color": "#2E8B57", "marker-symbol": "point"}}, {"type": "Feature", "geometry": {"type": "Point", "coordinates": [-121.686867, 46.936034]}, "properties": {"title": "Berkeley Park Camp (Group Site)", "description": "Trailside Camps | White River Area Camps", "marker-color": "#2E8B57", "marker-symbol": "point"}}, {"type": "Feature", "geometry": {"type": "Point", "coordinates": [-121.538575, 46.834662]}, "properties": {"title": "Deer Creek Camp", "description": "Trailside Camps | White River Area Camps", "marker-color": "#2E8B57", "marker-symbol": "point"}}, {"type": "Feature", "geometry": {"type": "Point", "coordinates": [-121.835194, 46.782109]}, "properties": {"title": "Devil's Dream Camp", "description": "Trailside Camps | Longmire Area Camps", "marker-color": "#2E8B57", "marker-symbol": "point"}}, {"type": "Feature", "geometry": {"type": "Point", "coordinates": [-121.835194, 46.782109]}, "properties": {"title": "Devil's Dream Camp (Group Site)", "description": "Trailside Camps | Longmire Area Camps", "marker-color": "#2E8B57", "marker-symbol": "point"}}, {"type": "Feature", "geometry": {"type": "Point", "coordinates": [-121.594253, 46.941198]}, "properties": {"title": "Dick's Lake Camp", "description": "Trailside Camps | White River Area Camps", "marker-color": "#2E8B57", "marker-symbol": "point"}}, {"type": "Feature", "geometry": {"type": "Point", "coordinates": [-121.652314, 46.932366]}, "properties": {"title": "Forest Lake Camp", "description": "Trailside Camps | White River Area Camps", "marker-color": "#2E8B57", "marker-symbol": "point"}}, {"type": "Feature", "geometry": {"type": "Point", "coordinates": [-121.701164, 46.889168]}, "properties": {"title": "Glacier Basin Camp", "description": "Trailside Camps | White River Area Camps", "marker-color": "#2E8B57", "marker-symbol": "point"}}, {"type": "Feature", "geometry": {"type": "Point", "coordinates": [-121.701164, 46.889168]}, "properties": {"title": "Glacier Basin Camp (Group Site)", "description": "Trailside Camps | White River Area Camps", "marker-color": "#2E8B57", "marker-symbol": "point"}}, {"type": "Feature", "geometry": {"type": "Point", "coordinates": [-121.639797, 46.825786]}, "properties": {"title": "Indian Bar Camp", "description": "Trailside Camps | White River Area Camps", "marker-color": "#2E8B57", "marker-symbol": "point"}}, {"type": "Feature", "geometry": {"type": "Point", "coordinates": [-121.639797, 46.825786]}, "properties": {"title": "Indian Bar Camp (Group Site)", "description": "Trailside Camps | White River Area Camps", "marker-color": "#2E8B57", "marker-symbol": "point"}}, {"type": "Feature", "geometry": {"type": "Point", "coordinates": [-121.654924, 46.989684]}, "properties": {"title": "Lake Eleanor Camp", "description": "Trailside Camps | White River Area Camps", "marker-color": "#2E8B57", "marker-symbol": "point"}}, {"type": "Feature", "geometry": {"type": "Point", "coordinates": [-121.654924, 46.989684]}, "properties": {"title": "Lake Eleanor Camp (Group Site)", "description": "Trailside Camps | White River Area Camps", "marker-color": "#2E8B57", "marker-symbol": "point"}}, {"type": "Feature", "geometry": {"type": "Point", "coordinates": [-121.513825, 46.911349]}, "properties": {"title": "Lower Crystal Lake Camp", "description": "Trailside Camps | White River Area Camps", "marker-color": "#2E8B57", "marker-symbol": "point"}}, {"type": "Feature", "geometry": {"type": "Point", "coordinates": [-121.624065, 46.772278]}, "properties": {"title": "Nickel Creek Camp", "description": "Trailside Camps | White River Area Camps", "marker-color": "#2E8B57", "marker-symbol": "point"}}, {"type": "Feature", "geometry": {"type": "Point", "coordinates": [-121.624065, 46.772278]}, "properties": {"title": "Nickel Creek Camp (Group Site)", "description": "Trailside Camps | White River Area Camps", "marker-color": "#2E8B57", "marker-symbol": "point"}}, {"type": "Feature", "geometry": {"type": "Point", "coordinates": [-121.589112, 46.775578]}, "properties": {"title": "Olallie Creek Camp", "description": "Trailside Camps | White River Area Camps", "marker-color": "#2E8B57", "marker-symbol": "point"}}, {"type": "Feature", "geometry": {"type": "Point", "coordinates": [-121.589112, 46.775578]}, "properties": {"title": "Olallie Creek Camp (Group Site)", "description": "Trailside Camps | White River Area Camps", "marker-color": "#2E8B57", "marker-symbol": "point"}}, {"type": "Feature", "geometry": {"type": "Point", "coordinates": [-121.531393, 46.810237]}, "properties": {"title": "Shriner Peak Camp", "description": "Trailside Camps | White River Area Camps", "marker-color": "#2E8B57", "marker-symbol": "point"}}, {"type": "Feature", "geometry": {"type": "Point", "coordinates": [-121.659165, 46.865223]}, "properties": {"title": "Summerland Camp", "description": "Trailside Camps | White River Area Camps", "marker-color": "#2E8B57", "marker-symbol": "point"}}, {"type": "Feature", "geometry": {"type": "Point", "coordinates": [-121.659165, 46.865223]}, "properties": {"title": "Summerland Camp (Group Site)", "description": "Trailside Camps | White River Area Camps", "marker-color": "#2E8B57", "marker-symbol": "point"}}, {"type": "Feature", "geometry": {"type": "Point", "coordinates": [-121.659192, 46.91102]}, "properties": {"title": "Sunrise Camp", "description": "Trailside Camps | White River Area Camps", "marker-color": "#2E8B57", "marker-symbol": "point"}}, {"type": "Feature", "geometry": {"type": "Point", "coordinates": [-121.659192, 46.91102]}, "properties": {"title": "Sunrise Camp (Group Site)", "description": "Trailside Camps | White River Area Camps", "marker-color": "#2E8B57", "marker-symbol": "point"}}, {"type": "Feature", "geometry": {"type": "Point", "coordinates": [-121.586581, 46.870695]}, "properties": {"title": "Tamanos Creek Camp", "description": "Trailside Camps | White River Area Camps", "marker-color": "#2E8B57", "marker-symbol": "point"}}, {"type": "Feature", "geometry": {"type": "Point", "coordinates": [-121.586581, 46.870695]}, "properties": {"title": "Tamanos Creek Camp (Group Site)", "description": "Trailside Camps | White River Area Camps", "marker-color": "#2E8B57", "marker-symbol": "point"}}, {"type": "Feature", "geometry": {"type": "Point", "coordinates": [-121.473329, 46.763103]}, "properties": {"title": "Three Lakes Camp", "description": "Trailside Camps | White River Area Camps", "marker-color": "#2E8B57", "marker-symbol": "point"}}, {"type": "Feature", "geometry": {"type": "Point", "coordinates": [-121.473329, 46.763103]}, "properties": {"title": "Three Lakes Camp (Group Site)", "description": "Trailside Camps | White River Area Camps", "marker-color": "#2E8B57", "marker-symbol": "point"}}, {"type": "Feature", "geometry": {"type": "Point", "coordinates": [-121.508748, 46.905956]}, "properties": {"title": "Upper Crystal Lake Camp", "description": "Trailside Camps | White River Area Camps", "marker-color": "#2E8B57", "marker-symbol": "point"}}, {"type": "Feature", "geometry": {"type": "Point", "coordinates": [-121.591768, 46.950247]}, "properties": {"title": "Upper Palisades Lake Camp", "description": "Trailside Camps | White River Area Camps", "marker-color": "#2E8B57", "marker-symbol": "point"}}, {"type": "Feature", "geometry": {"type": "Point", "coordinates": [-121.637797, 46.902518]}, "properties": {"title": "White River Backpacker Camp", "description": "Trailside Camps | White River Area Camps", "marker-color": "#2E8B57", "marker-symbol": "point"}}, {"type": "Feature", "geometry": {"type": "Point", "coordinates": [-121.637797, 46.902518]}, "properties": {"title": "White River Backpacker Camp (Group Site)", "description": "Trailside Camps | White River Area Camps", "marker-color": "#2E8B57", "marker-symbol": "point"}}, {"type": "Feature", "geometry": {"type": "Point", "coordinates": [-121.7239, 46.8735]}, "properties": {"title": "Camp Curtis Alpine Camp", "description": "Alpine Camps and Zones | High and Moderate Use Climbing Routes", "marker-color": "#C0392B", "marker-symbol": "point"}}, {"type": "Feature", "geometry": {"type": "Point", "coordinates": [-121.7329, 46.8355]}, "properties": {"title": "Camp Muir Alpine Camp", "description": "Alpine Camps and Zones | High and Moderate Use Climbing Routes", "marker-color": "#C0392B", "marker-symbol": "point"}}, {"type": "Feature", "geometry": {"type": "Point", "coordinates": [-121.734, 46.8701]}, "properties": {"title": "Camp Schurman Alpine Camp", "description": "Alpine Camps and Zones | High and Moderate Use Climbing Routes", "marker-color": "#C0392B", "marker-symbol": "point"}}, {"type": "Feature", "geometry": {"type": "Point", "coordinates": [-121.7339, 46.8661]}, "properties": {"title": "Emmons Flats Alpine Zone", "description": "Alpine Camps and Zones | High and Moderate Use Climbing Routes", "marker-color": "#C0392B", "marker-symbol": "point"}}, {"type": "Feature", "geometry": {"type": "Point", "coordinates": [-121.732169, 46.84594642]}, "properties": {"title": "Ingraham Flats Alpine Zone", "description": "Alpine Camps and Zones | High and Moderate Use Climbing Routes", "marker-color": "#C0392B", "marker-symbol": "point"}}, {"type": "Feature", "geometry": {"type": "Point", "coordinates": [-121.7252063, 46.877949]}, "properties": {"title": "Inter Glacier Alpine Zone", "description": "Alpine Camps and Zones | High and Moderate Use Climbing Routes", "marker-color": "#C0392B", "marker-symbol": "point"}}, {"type": "Feature", "geometry": {"type": "Point", "coordinates": [-121.7813132, 46.82217499]}, "properties": {"title": "Kautz Climbing Alpine Zone", "description": "Alpine Camps and Zones | High and Moderate Use Climbing Routes", "marker-color": "#C0392B", "marker-symbol": "point"}}, {"type": "Feature", "geometry": {"type": "Point", "coordinates": [-121.7317457, 46.82917409]}, "properties": {"title": "Muir Snowfield Alpine Zone", "description": "Alpine Camps and Zones | High and Moderate Use Climbing Routes", "marker-color": "#C0392B", "marker-symbol": "point"}}, {"type": "Feature", "geometry": {"type": "Point", "coordinates": [-121.7561484, 46.81865446]}, "properties": {"title": "Wilson Alpine Zone", "description": "Alpine Camps and Zones | High and Moderate Use Climbing Routes", "marker-color": "#C0392B", "marker-symbol": "point"}}, {"type": "Feature", "geometry": {"type": "Point", "coordinates": [-121.7646018, 46.89416395]}, "properties": {"title": "Carbon Alpine Zone (Curtis Ridge)", "description": "Alpine Camps and Zones | Other Alpine Camps and Zones", "marker-color": "#C0392B", "marker-symbol": "point"}}, {"type": "Feature", "geometry": {"type": "Point", "coordinates": [-121.85744, 46.86068537]}, "properties": {"title": "Colonades Alpine Zone", "description": "Alpine Camps and Zones | Other Alpine Camps and Zones", "marker-color": "#C0392B", "marker-symbol": "point"}}, {"type": "Feature", "geometry": {"type": "Point", "coordinates": [-121.7124695, 46.82942957]}, "properties": {"title": "Cowlitz Glacier Alpine", "description": "Alpine Camps and Zones | Other Alpine Camps and Zones", "marker-color": "#C0392B", "marker-symbol": "point"}}, {"type": "Feature", "geometry": {"type": "Point", "coordinates": [-121.7130141, 46.86563674]}, "properties": {"title": "Emmons Glacier Alpine Zone", "description": "Alpine Camps and Zones | Other Alpine Camps and Zones", "marker-color": "#C0392B", "marker-symbol": "point"}}, {"type": "Feature", "geometry": {"type": "Point", "coordinates": [-121.680636, 46.84442605]}, "properties": {"title": "Little Tahoma Alpine Zone", "description": "Alpine Camps and Zones | Other Alpine Camps and Zones", "marker-color": "#C0392B", "marker-symbol": "point"}}, {"type": "Feature", "geometry": {"type": "Point", "coordinates": [-121.7421285, 46.80727921]}, "properties": {"title": "Lower Nisqually Alpine Zone", "description": "Alpine Camps and Zones | Other Alpine Camps and Zones", "marker-color": "#C0392B", "marker-symbol": "point"}}, {"type": "Feature", "geometry": {"type": "Point", "coordinates": [-121.744483, 46.83328285]}, "properties": {"title": "Nisqually Alpine Zone", "description": "Alpine Camps and Zones | Other Alpine Camps and Zones", "marker-color": "#C0392B", "marker-symbol": "point"}}, {"type": "Feature", "geometry": {"type": "Point", "coordinates": [-121.8083749, 46.90798046]}, "properties": {"title": "Ptarmigan Alpine Zone", "description": "Alpine Camps and Zones | Other Alpine Camps and Zones", "marker-color": "#C0392B", "marker-symbol": "point"}}, {"type": "Feature", "geometry": {"type": "Point", "coordinates": [-121.7645501, 46.85428694]}, "properties": {"title": "Summit Alpine Zone", "description": "Alpine Camps and Zones | Other Alpine Camps and Zones", "marker-color": "#C0392B", "marker-symbol": "point"}}, {"type": "Feature", "geometry": {"type": "Point", "coordinates": [-121.7713, 46.8756]}, "properties": {"title": "Thumb Rock Alpine Camp", "description": "Alpine Camps and Zones | Other Alpine Camps and Zones", "marker-color": "#C0392B", "marker-symbol": "point"}}, {"type": "Feature", "geometry": {"type": "Point", "coordinates": [-121.8189497, 46.83791658]}, "properties": {"title": "Tokaloo Alpine Zone", "description": "Alpine Camps and Zones | Other Alpine Camps and Zones", "marker-color": "#C0392B", "marker-symbol": "point"}}, {"type": "Feature", "geometry": {"type": "Point", "coordinates": [-121.7384519, 46.8853238]}, "properties": {"title": "Winthrop Alpine Zone", "description": "Alpine Camps and Zones | Other Alpine Camps and Zones", "marker-color": "#C0392B", "marker-symbol": "point"}}, {"type": "Feature", "geometry": {"type": "Point", "coordinates": [-121.7949, 46.7669]}, "properties": {"title": "Cougar Rock Winter Camp", "description": "Winter Camps and Zones | Winter Camps and Zones", "marker-color": "#7F8C8D", "marker-symbol": "point"}}, {"type": "Feature", "geometry": {"type": "Point", "coordinates": [-121.7389, 46.7878]}, "properties": {"title": "Dead Horse Creek Winter Large Group Camp", "description": "Winter Camps and Zones | Winter Camps and Zones", "marker-color": "#7F8C8D", "marker-symbol": "point"}}, {"type": "Feature", "geometry": {"type": "Point", "coordinates": [-121.7349, 46.7883]}, "properties": {"title": "Guide House Winter Large Group Camp", "description": "Winter Camps and Zones | Winter Camps and Zones", "marker-color": "#7F8C8D", "marker-symbol": "point"}}, {"type": "Feature", "geometry": {"type": "Point", "coordinates": [-121.7151, 46.7975]}, "properties": {"title": "Ice Caves Basin Winter Cross Country Zone", "description": "Winter Camps and Zones | Winter Camps and Zones", "marker-color": "#7F8C8D", "marker-symbol": "point"}}, {"type": "Feature", "geometry": {"type": "Point", "coordinates": [-121.7201, 46.7868]}, "properties": {"title": "Mazama Ridge Winter Cross Country Zone", "description": "Winter Camps and Zones | Winter Camps and Zones", "marker-color": "#7F8C8D", "marker-symbol": "point"}}, {"type": "Feature", "geometry": {"type": "Point", "coordinates": [-121.736, 46.788]}, "properties": {"title": "Paradise Area Winter Cross Country Zone", "description": "Winter Camps and Zones | Winter Camps and Zones", "marker-color": "#7F8C8D", "marker-symbol": "point"}}, {"type": "Feature", "geometry": {"type": "Point", "coordinates": [-121.7331, 46.7877]}, "properties": {"title": "Paradise Inn Winter Large Group Camp", "description": "Winter Camps and Zones | Winter Camps and Zones", "marker-color": "#7F8C8D", "marker-symbol": "point"}}, {"type": "Feature", "geometry": {"type": "Point", "coordinates": [-121.7268, 46.77]}, "properties": {"title": "Reflection Lakes Winter Cross Country Zone", "description": "Winter Camps and Zones | Winter Camps and Zones", "marker-color": "#7F8C8D", "marker-symbol": "point"}}, {"type": "Feature", "geometry": {"type": "Point", "coordinates": [-121.8840523, 46.964726]}, "properties": {"title": "Alki Crest Cross Country Zone", "description": "Cross-Country Zones | Carbon River Cross-Country Zones", "marker-color": "#E67E22", "marker-symbol": "point"}}, {"type": "Feature", "geometry": {"type": "Point", "coordinates": [-121.8318046, 46.95882015]}, "properties": {"title": "Carbon River West Cross Country Zone", "description": "Cross-Country Zones | Carbon River Cross-Country Zones", "marker-color": "#E67E22", "marker-symbol": "point"}}, {"type": "Feature", "geometry": {"type": "Point", "coordinates": [-121.7820533, 46.97440565]}, "properties": {"title": "Chenuis Lakes Cross Country Zone", "description": "Cross-Country Zones | Carbon River Cross-Country Zones", "marker-color": "#E67E22", "marker-symbol": "point"}}, {"type": "Feature", "geometry": {"type": "Point", "coordinates": [-121.7719903, 46.95112863]}, "properties": {"title": "Crescent Lake Cross Country Zone", "description": "Cross-Country Zones | Carbon River Cross-Country Zones", "marker-color": "#E67E22", "marker-symbol": "point"}}, {"type": "Feature", "geometry": {"type": "Point", "coordinates": [-121.796152, 46.93964028]}, "properties": {"title": "Echo Cliffs Cross Country Zone", "description": "Cross-Country Zones | Carbon River Cross-Country Zones", "marker-color": "#E67E22", "marker-symbol": "point"}}, {"type": "Feature", "geometry": {"type": "Point", "coordinates": [-121.8895982, 46.92999875]}, "properties": {"title": "Elizabeth Ridge Cross Country Zone", "description": "Cross-Country Zones | Carbon River Cross-Country Zones", "marker-color": "#E67E22", "marker-symbol": "point"}}, {"type": "Feature", "geometry": {"type": "Point", "coordinates": [-121.7620514, 46.94348626]}, "properties": {"title": "Elysian Fields Cross Country Zone", "description": "Cross-Country Zones | Carbon River Cross-Country Zones", "marker-color": "#E67E22", "marker-symbol": "point"}}, {"type": "Feature", "geometry": {"type": "Point", "coordinates": [-121.8631218, 46.9630091]}, "properties": {"title": "Gove Peak Cross Country Zone", "description": "Cross-Country Zones | Carbon River Cross-Country Zones", "marker-color": "#E67E22", "marker-symbol": "point"}}, {"type": "Feature", "geometry": {"type": "Point", "coordinates": [-121.8890307, 46.98143077]}, "properties": {"title": "Lower Carbon River Cross Country Zone", "description": "Cross-Country Zones | Carbon River Cross-Country Zones", "marker-color": "#E67E22", "marker-symbol": "point"}}, {"type": "Feature", "geometry": {"type": "Point", "coordinates": [-121.9100804, 46.91075598]}, "properties": {"title": "Lower Mowich River Cross Country Zone", "description": "Cross-Country Zones | Carbon River Cross-Country Zones", "marker-color": "#E67E22", "marker-symbol": "point"}}, {"type": "Feature", "geometry": {"type": "Point", "coordinates": [-121.7119015, 46.98625133]}, "properties": {"title": "Lower West Fork Cross Country Zone", "description": "Cross-Country Zones | Carbon River Cross-Country Zones", "marker-color": "#E67E22", "marker-symbol": "point"}}, {"type": "Feature", "geometry": {"type": "Point", "coordinates": [-121.7469857, 46.90699312]}, "properties": {"title": "Mineral Mountain Cross Country Zone", "description": "Cross-Country Zones | Carbon River Cross-Country Zones", "marker-color": "#E67E22", "marker-symbol": "point"}}, {"type": "Feature", "geometry": {"type": "Point", "coordinates": [-121.8224568, 46.93489198]}, "properties": {"title": "Mist Park Cross Country Zone", "description": "Cross-Country Zones | Carbon River Cross-Country Zones", "marker-color": "#E67E22", "marker-symbol": "point"}}, {"type": "Feature", "geometry": {"type": "Point", "coordinates": [-121.7643667, 46.93416443]}, "properties": {"title": "Moraine Park Cross Country Zone", "description": "Cross-Country Zones | Carbon River Cross-Country Zones", "marker-color": "#E67E22", "marker-symbol": "point"}}, {"type": "Feature", "geometry": {"type": "Point", "coordinates": [-121.8372984, 46.94015307]}, "properties": {"title": "Mother Mountain Cross Country Zone", "description": "Cross-Country Zones | Carbon River Cross-Country Zones", "marker-color": "#E67E22", "marker-symbol": "point"}}, {"type": "Feature", "geometry": {"type": "Point", "coordinates": [-121.8055816, 46.97634196]}, "properties": {"title": "North Carbon River Cross Country Zone", "description": "Cross-Country Zones | Carbon River Cross-Country Zones", "marker-color": "#E67E22", "marker-symbol": "point"}}, {"type": "Feature", "geometry": {"type": "Point", "coordinates": [-121.742476, 46.97629983]}, "properties": {"title": "Northern Lakes Cross Country Zone", "description": "Cross-Country Zones | Carbon River Cross-Country Zones", "marker-color": "#E67E22", "marker-symbol": "point"}}, {"type": "Feature", "geometry": {"type": "Point", "coordinates": [-121.7518931, 46.92817228]}, "properties": {"title": "Old Desolate Cross Country Zone", "description": "Cross-Country Zones | Carbon River Cross-Country Zones", "marker-color": "#E67E22", "marker-symbol": "point"}}, {"type": "Feature", "geometry": {"type": "Point", "coordinates": [-121.8083749, 46.90798046]}, "properties": {"title": "Ptarmigan Ridge Cross Country Zone", "description": "Cross-Country Zones | Carbon River Cross-Country Zones", "marker-color": "#E67E22", "marker-symbol": "point"}}, {"type": "Feature", "geometry": {"type": "Point", "coordinates": [-121.7916419, 46.92736485]}, "properties": {"title": "Seattle Park Cross Country Zone", "description": "Cross-Country Zones | Carbon River Cross-Country Zones", "marker-color": "#E67E22", "marker-symbol": "point"}}, {"type": "Feature", "geometry": {"type": "Point", "coordinates": [-121.6988452, 46.92918843]}, "properties": {"title": "Skyscraper Mountain Cross Country Zone", "description": "Cross-Country Zones | Carbon River Cross-Country Zones", "marker-color": "#E67E22", "marker-symbol": "point"}}, {"type": "Feature", "geometry": {"type": "Point", "coordinates": [-121.8304495, 46.91481766]}, "properties": {"title": "Southern Spray Park Cross Country Zone", "description": "Cross-Country Zones | Carbon River Cross-Country Zones", "marker-color": "#E67E22", "marker-symbol": "point"}}, {"type": "Feature", "geometry": {"type": "Point", "coordinates": [-121.7819388, 46.98590918]}, "properties": {"title": "Tirzah Peak Cross Country Zone", "description": "Cross-Country Zones | Carbon River Cross-Country Zones", "marker-color": "#E67E22", "marker-symbol": "point"}}, {"type": "Feature", "geometry": {"type": "Point", "coordinates": [-121.7577284, 46.96555986]}, "properties": {"title": "Tyee Peak Cross Country Zone", "description": "Cross-Country Zones | Carbon River Cross-Country Zones", "marker-color": "#E67E22", "marker-symbol": "point"}}, {"type": "Feature", "geometry": {"type": "Point", "coordinates": [-121.8517903, 46.97289063]}, "properties": {"title": "Upper Carbon River Cross Country Zone", "description": "Cross-Country Zones | Carbon River Cross-Country Zones", "marker-color": "#E67E22", "marker-symbol": "point"}}, {"type": "Feature", "geometry": {"type": "Point", "coordinates": [-121.7195829, 46.91199346]}, "properties": {"title": "Upper Granite Creek Cross Country Zone", "description": "Cross-Country Zones | Carbon River Cross-Country Zones", "marker-color": "#E67E22", "marker-symbol": "point"}}, {"type": "Feature", "geometry": {"type": "Point", "coordinates": [-121.8643206, 46.89503643]}, "properties": {"title": "Upper Mowich River Cross Country Zone", "description": "Cross-Country Zones | Carbon River Cross-Country Zones", "marker-color": "#E67E22", "marker-symbol": "point"}}, {"type": "Feature", "geometry": {"type": "Point", "coordinates": [-121.7404294, 46.93732342]}, "properties": {"title": "Vernal Park Cross Country Zone", "description": "Cross-Country Zones | Carbon River Cross-Country Zones", "marker-color": "#E67E22", "marker-symbol": "point"}}, {"type": "Feature", "geometry": {"type": "Point", "coordinates": [-121.9047331, 46.95520468]}, "properties": {"title": "Virginia Peak Cross Country Zone", "description": "Cross-Country Zones | Carbon River Cross-Country Zones", "marker-color": "#E67E22", "marker-symbol": "point"}}, {"type": "Feature", "geometry": {"type": "Point", "coordinates": [-121.7032003, 46.94585947]}, "properties": {"title": "West Fork White River Cross Country Zone", "description": "Cross-Country Zones | Carbon River Cross-Country Zones", "marker-color": "#E67E22", "marker-symbol": "point"}}, {"type": "Feature", "geometry": {"type": "Point", "coordinates": [-121.85744, 46.86068537]}, "properties": {"title": "Colonades Cross Country Zone", "description": "Cross-Country Zones | Longmire Cross-Country Zones", "marker-color": "#E67E22", "marker-symbol": "point"}}, {"type": "Feature", "geometry": {"type": "Point", "coordinates": [-121.7876972, 46.73906714]}, "properties": {"title": "Eagle Peak Cross Country Zone", "description": "Cross-Country Zones | Longmire Cross-Country Zones", "marker-color": "#E67E22", "marker-symbol": "point"}}, {"type": "Feature", "geometry": {"type": "Point", "coordinates": [-121.8690583, 46.80600173]}, "properties": {"title": "Emerald Ridge Cross Country Zone", "description": "Cross-Country Zones | Longmire Cross-Country Zones", "marker-color": "#E67E22", "marker-symbol": "point"}}, {"type": "Feature", "geometry": {"type": "Point", "coordinates": [-121.8254486, 46.81792911]}, "properties": {"title": "Glacier Island Cross Country Zone", "description": "Cross-Country Zones | Longmire Cross-Country Zones", "marker-color": "#E67E22", "marker-symbol": "point"}}, {"type": "Feature", "geometry": {"type": "Point", "coordinates": [-121.9097565, 46.87035414]}, "properties": {"title": "Golden Lakes Cross Country Zone", "description": "Cross-Country Zones | Longmire Cross-Country Zones", "marker-color": "#E67E22", "marker-symbol": "point"}}, {"type": "Feature", "geometry": {"type": "Point", "coordinates": [-121.9145029, 46.80722063]}, "properties": {"title": "Kenworthy Lakes Cross Country Zone", "description": "Cross-Country Zones | Longmire Cross-Country Zones", "marker-color": "#E67E22", "marker-symbol": "point"}}, {"type": "Feature", "geometry": {"type": "Point", "coordinates": [-121.6226548, 46.73438641]}, "properties": {"title": "Lower Cowlitz Cross Country Zone", "description": "Cross-Country Zones | Longmire Cross-Country Zones", "marker-color": "#E67E22", "marker-symbol": "point"}}, {"type": "Feature", "geometry": {"type": "Point", "coordinates": [-121.8334784, 46.76029108]}, "properties": {"title": "Lower Kautz Creek Cross Country Zone", "description": "Cross-Country Zones | Longmire Cross-Country Zones", "marker-color": "#E67E22", "marker-symbol": "point"}}, {"type": "Feature", "geometry": {"type": "Point", "coordinates": [-121.903473, 46.7677863]}, "properties": {"title": "Mount Wow Cross Country Zone", "description": "Cross-Country Zones | Longmire Cross-Country Zones", "marker-color": "#E67E22", "marker-symbol": "point"}}, {"type": "Feature", "geometry": {"type": "Point", "coordinates": [-121.6632869, 46.7853357]}, "properties": {"title": "Muddy Fork of the Cowlitz Cross Country Zone", "description": "Cross-Country Zones | Longmire Cross-Country Zones", "marker-color": "#E67E22", "marker-symbol": "point"}}, {"type": "Feature", "geometry": {"type": "Point", "coordinates": [-121.8137316, 46.80178136]}, "properties": {"title": "Pyramid Peak Cross Country Zone", "description": "Cross-Country Zones | Longmire Cross-Country Zones", "marker-color": "#E67E22", "marker-symbol": "point"}}, {"type": "Feature", "geometry": {"type": "Point", "coordinates": [-121.8400311, 46.77528483]}, "properties": {"title": "Satulick Mountain Cross Country Zone", "description": "Cross-Country Zones | Longmire Cross-Country Zones", "marker-color": "#E67E22", "marker-symbol": "point"}}, {"type": "Feature", "geometry": {"type": "Point", "coordinates": [-121.6452399, 46.74307568]}, "properties": {"title": "Stevens Canyon South Cross Country Zone", "description": "Cross-Country Zones | Longmire Cross-Country Zones", "marker-color": "#E67E22", "marker-symbol": "point"}}, {"type": "Feature", "geometry": {"type": "Point", "coordinates": [-121.6818778, 46.79793409]}, "properties": {"title": "Stevens Ridge Cross Country Zone", "description": "Cross-Country Zones | Longmire Cross-Country Zones", "marker-color": "#E67E22", "marker-symbol": "point"}}, {"type": "Feature", "geometry": {"type": "Point", "coordinates": [-121.8757867, 46.85439601]}, "properties": {"title": "Sunset Park Cross Country Zone", "description": "Cross-Country Zones | Longmire Cross-Country Zones", "marker-color": "#E67E22", "marker-symbol": "point"}}, {"type": "Feature", "geometry": {"type": "Point", "coordinates": [-121.7696305, 46.75813934]}, "properties": {"title": "Tatoosh Creek East Cross Country Zone", "description": "Cross-Country Zones | Longmire Cross-Country Zones", "marker-color": "#E67E22", "marker-symbol": "point"}}, {"type": "Feature", "geometry": {"type": "Point", "coordinates": [-121.7927038, 46.75628322]}, "properties": {"title": "Tatoosh Creek West Cross Country Zone", "description": "Cross-Country Zones | Longmire Cross-Country Zones", "marker-color": "#E67E22", "marker-symbol": "point"}}, {"type": "Feature", "geometry": {"type": "Point", "coordinates": [-121.6913466, 46.74654693]}, "properties": {"title": "Tatoosh Range East Cross Country Zone", "description": "Cross-Country Zones | Longmire Cross-Country Zones", "marker-color": "#E67E22", "marker-symbol": "point"}}, {"type": "Feature", "geometry": {"type": "Point", "coordinates": [-121.7712692, 46.74766879]}, "properties": {"title": "Tatoosh Range West Cross Country Zone", "description": "Cross-Country Zones | Longmire Cross-Country Zones", "marker-color": "#E67E22", "marker-symbol": "point"}}, {"type": "Feature", "geometry": {"type": "Point", "coordinates": [-121.8684929, 46.77948071]}, "properties": {"title": "Tum Tum Cross Country Zone", "description": "Cross-Country Zones | Longmire Cross-Country Zones", "marker-color": "#E67E22", "marker-symbol": "point"}}, {"type": "Feature", "geometry": {"type": "Point", "coordinates": [-121.8026359, 46.79130856]}, "properties": {"title": "Upper Kautz Creek Cross Country Zone", "description": "Cross-Country Zones | Longmire Cross-Country Zones", "marker-color": "#E67E22", "marker-symbol": "point"}}, {"type": "Feature", "geometry": {"type": "Point", "coordinates": [-121.7612195, 46.78818619]}, "properties": {"title": "Upper Nisqually Cross Country Zone", "description": "Cross-Country Zones | Longmire Cross-Country Zones", "marker-color": "#E67E22", "marker-symbol": "point"}}, {"type": "Feature", "geometry": {"type": "Point", "coordinates": [-121.8888405, 46.82219242]}, "properties": {"title": "Upper West Side Road Cross Country Zone", "description": "Cross-Country Zones | Longmire Cross-Country Zones", "marker-color": "#E67E22", "marker-symbol": "point"}}, {"type": "Feature", "geometry": {"type": "Point", "coordinates": [-121.698369, 46.80708216]}, "properties": {"title": "Williwakas Creek Cross Country Zone", "description": "Cross-Country Zones | Longmire Cross-Country Zones", "marker-color": "#E67E22", "marker-symbol": "point"}}, {"type": "Feature", "geometry": {"type": "Point", "coordinates": [-121.5962022, 46.75297886]}, "properties": {"title": "Backbone Ridge Cross Country Zone", "description": "Cross-Country Zones | White River Cross-Country Zones", "marker-color": "#E67E22", "marker-symbol": "point"}}, {"type": "Feature", "geometry": {"type": "Point", "coordinates": [-121.6193086, 46.96382304]}, "properties": {"title": "Burnt Park Cross Country Zone", "description": "Cross-Country Zones | White River Cross-Country Zones", "marker-color": "#E67E22", "marker-symbol": "point"}}, {"type": "Feature", "geometry": {"type": "Point", "coordinates": [-121.7118544, 46.90259296]}, "properties": {"title": "Burroughs Mountain Cross Country Zone", "description": "Cross-Country Zones | White River Cross-Country Zones", "marker-color": "#E67E22", "marker-symbol": "point"}}, {"type": "Feature", "geometry": {"type": "Point", "coordinates": [-121.5497745, 46.85690672]}, "properties": {"title": "Cayuse Pass Cross Country Zone", "description": "Cross-Country Zones | White River Cross-Country Zones", "marker-color": "#E67E22", "marker-symbol": "point"}}, {"type": "Feature", "geometry": {"type": "Point", "coordinates": [-121.6413421, 46.811155]}, "properties": {"title": "Cowlitz Park Cross Country Zone", "description": "Cross-Country Zones | White River Cross-Country Zones", "marker-color": "#E67E22", "marker-symbol": "point"}}, {"type": "Feature", "geometry": {"type": "Point", "coordinates": [-121.5095639, 46.9232889]}, "properties": {"title": "Crystal Mountain Cross Country Zone", "description": "Cross-Country Zones | White River Cross-Country Zones", "marker-color": "#E67E22", "marker-symbol": "point"}}, {"type": "Feature", "geometry": {"type": "Point", "coordinates": [-121.5249588, 46.89523496]}, "properties": {"title": "Deadwood Lakes Cross Country Zone", "description": "Cross-Country Zones | White River Cross-Country Zones", "marker-color": "#E67E22", "marker-symbol": "point"}}, {"type": "Feature", "geometry": {"type": "Point", "coordinates": [-121.5011396, 46.83992569]}, "properties": {"title": "Dewey Creek Cross Country Zone", "description": "Cross-Country Zones | White River Cross-Country Zones", "marker-color": "#E67E22", "marker-symbol": "point"}}, {"type": "Feature", "geometry": {"type": "Point", "coordinates": [-121.5946271, 46.83635917]}, "properties": {"title": "Double Peak Cross Country Zone", "description": "Cross-Country Zones | White River Cross-Country Zones", "marker-color": "#E67E22", "marker-symbol": "point"}}, {"type": "Feature", "geometry": {"type": "Point", "coordinates": [-121.6298941, 46.86373694]}, "properties": {"title": "Fryingpan Creek Cross Country Zone", "description": "Cross-Country Zones | White River Cross-Country Zones", "marker-color": "#E67E22", "marker-symbol": "point"}}, {"type": "Feature", "geometry": {"type": "Point", "coordinates": [-121.6533692, 46.8824824]}, "properties": {"title": "Goat Island Mountain Cross Country Zone", "description": "Cross-Country Zones | White River Cross-Country Zones", "marker-color": "#E67E22", "marker-symbol": "point"}}, {"type": "Feature", "geometry": {"type": "Point", "coordinates": [-121.5659428, 46.8668396]}, "properties": {"title": "Governors Ridge Cross Country Zone", "description": "Cross-Country Zones | White River Cross-Country Zones", "marker-color": "#E67E22", "marker-symbol": "point"}}, {"type": "Feature", "geometry": {"type": "Point", "coordinates": [-121.6709882, 46.96097003]}, "properties": {"title": "Grand Park Cross Country Zone", "description": "Cross-Country Zones | White River Cross-Country Zones", "marker-color": "#E67E22", "marker-symbol": "point"}}, {"type": "Feature", "geometry": {"type": "Point", "coordinates": [-121.6224179, 46.94863162]}, "properties": {"title": "Green Park Cross Country Zone", "description": "Cross-Country Zones | White River Cross-Country Zones", "marker-color": "#E67E22", "marker-symbol": "point"}}, {"type": "Feature", "geometry": {"type": "Point", "coordinates": [-121.6220603, 46.92975333]}, "properties": {"title": "Huckleberry Park Cross Country Zone", "description": "Cross-Country Zones | White River Cross-Country Zones", "marker-color": "#E67E22", "marker-symbol": "point"}}, {"type": "Feature", "geometry": {"type": "Point", "coordinates": [-121.6679598, 46.95101183]}, "properties": {"title": "Lake Eleanor Cross Country Zone", "description": "Cross-Country Zones | White River Cross-Country Zones", "marker-color": "#E67E22", "marker-symbol": "point"}}, {"type": "Feature", "geometry": {"type": "Point", "coordinates": [-121.5018921, 46.78067127]}, "properties": {"title": "Laughingwater North Cross Country Zone", "description": "Cross-Country Zones | White River Cross-Country Zones", "marker-color": "#E67E22", "marker-symbol": "point"}}, {"type": "Feature", "geometry": {"type": "Point", "coordinates": [-121.5256134, 46.74796041]}, "properties": {"title": "Laughingwater South Cross Country Zone", "description": "Cross-Country Zones | White River Cross-Country Zones", "marker-color": "#E67E22", "marker-symbol": "point"}}, {"type": "Feature", "geometry": {"type": "Point", "coordinates": [-121.5981841, 46.97621569]}, "properties": {"title": "Lost Creek Cross Country Zone", "description": "Cross-Country Zones | White River Cross-Country Zones", "marker-color": "#E67E22", "marker-symbol": "point"}}, {"type": "Feature", "geometry": {"type": "Point", "coordinates": [-121.517451, 46.94951145]}, "properties": {"title": "Lower Crystal Mountain Cross Country Zone", "description": "Cross-Country Zones | White River Cross-Country Zones", "marker-color": "#E67E22", "marker-symbol": "point"}}, {"type": "Feature", "geometry": {"type": "Point", "coordinates": [-121.6107271, 46.8752728]}, "properties": {"title": "Lower Fryingpan Cross Country Zone", "description": "Cross-Country Zones | White River Cross-Country Zones", "marker-color": "#E67E22", "marker-symbol": "point"}}, {"type": "Feature", "geometry": {"type": "Point", "coordinates": [-121.6245799, 46.89027772]}, "properties": {"title": "Lower Goat Island Mountain Cross Country Zone", "description": "Cross-Country Zones | White River Cross-Country Zones", "marker-color": "#E67E22", "marker-symbol": "point"}}, {"type": "Feature", "geometry": {"type": "Point", "coordinates": [-121.5881492, 46.80267959]}, "properties": {"title": "Lower Ohanapecosh Cross Country Zone", "description": "Cross-Country Zones | White River Cross-Country Zones", "marker-color": "#E67E22", "marker-symbol": "point"}}, {"type": "Feature", "geometry": {"type": "Point", "coordinates": [-121.6088731, 46.95678919]}, "properties": {"title": "Lower Palisades Cross Country Zone", "description": "Cross-Country Zones | White River Cross-Country Zones", "marker-color": "#E67E22", "marker-symbol": "point"}}, {"type": "Feature", "geometry": {"type": "Point", "coordinates": [-121.6637739, 46.93911256]}, "properties": {"title": "McNeeley Peak Cross Country Zone", "description": "Cross-Country Zones | White River Cross-Country Zones", "marker-color": "#E67E22", "marker-symbol": "point"}}, {"type": "Feature", "geometry": {"type": "Point", "coordinates": [-121.6888247, 46.88680639]}, "properties": {"title": "Mount Ruth Cross Country Zone", "description": "Cross-Country Zones | White River Cross-Country Zones", "marker-color": "#E67E22", "marker-symbol": "point"}}, {"type": "Feature", "geometry": {"type": "Point", "coordinates": [-121.6343156, 46.7844458]}, "properties": {"title": "Nickel Creek Cross Country Zone", "description": "Cross-Country Zones | White River Cross-Country Zones", "marker-color": "#E67E22", "marker-symbol": "point"}}, {"type": "Feature", "geometry": {"type": "Point", "coordinates": [-121.637095, 46.839826]}, "properties": {"title": "Ohanapecosh Park Cross Country Zone", "description": "Cross-Country Zones | White River Cross-Country Zones", "marker-color": "#E67E22", "marker-symbol": "point"}}, {"type": "Feature", "geometry": {"type": "Point", "coordinates": [-121.6200572, 46.85435559]}, "properties": {"title": "Sarvent Cross Country Zone", "description": "Cross-Country Zones | White River Cross-Country Zones", "marker-color": "#E67E22", "marker-symbol": "point"}}, {"type": "Feature", "geometry": {"type": "Point", "coordinates": [-121.6685057, 46.98836938]}, "properties": {"title": "Scarface Cross Country Zone", "description": "Cross-Country Zones | White River Cross-Country Zones", "marker-color": "#E67E22", "marker-symbol": "point"}}, {"type": "Feature", "geometry": {"type": "Point", "coordinates": [-121.5071834, 46.81070033]}, "properties": {"title": "Shriner Peak Cross Country Zone", "description": "Cross-Country Zones | White River Cross-Country Zones", "marker-color": "#E67E22", "marker-symbol": "point"}}, {"type": "Feature", "geometry": {"type": "Point", "coordinates": [-121.5809917, 46.97564914]}, "properties": {"title": "Slide Mountain Cross Country Zone", "description": "Cross-Country Zones | White River Cross-Country Zones", "marker-color": "#E67E22", "marker-symbol": "point"}}, {"type": "Feature", "geometry": {"type": "Point", "coordinates": [-121.5603306, 46.94785373]}, "properties": {"title": "Sunrise Ridge North Cross Country Zone", "description": "Cross-Country Zones | White River Cross-Country Zones", "marker-color": "#E67E22", "marker-symbol": "point"}}, {"type": "Feature", "geometry": {"type": "Point", "coordinates": [-121.5552657, 46.92330195]}, "properties": {"title": "Sunrise Ridge South Cross Country Zone", "description": "Cross-Country Zones | White River Cross-Country Zones", "marker-color": "#E67E22", "marker-symbol": "point"}}, {"type": "Feature", "geometry": {"type": "Point", "coordinates": [-121.6156803, 46.90492895]}, "properties": {"title": "Sunrise Rim Cross Country Zone", "description": "Cross-Country Zones | White River Cross-Country Zones", "marker-color": "#E67E22", "marker-symbol": "point"}}, {"type": "Feature", "geometry": {"type": "Point", "coordinates": [-121.5975431, 46.86584951]}, "properties": {"title": "Tamanos Mountain Cross Country Zone", "description": "Cross-Country Zones | White River Cross-Country Zones", "marker-color": "#E67E22", "marker-symbol": "point"}}, {"type": "Feature", "geometry": {"type": "Point", "coordinates": [-121.5986962, 46.70830894]}, "properties": {"title": "Backbone Ridge Trailhead", "description": "Trailhead | parking: unknown/none", "marker-color": "#1F6AA5", "marker-symbol": "point"}}, {"type": "Feature", "geometry": {"type": "Point", "coordinates": [-121.7068944, 46.76763684]}, "properties": {"title": "Bench Lake Trailhead", "description": "Trailhead | parking: unknown/none", "marker-color": "#1F6AA5", "marker-symbol": "point"}}, {"type": "Feature", "geometry": {"type": "Point", "coordinates": [-121.6399982, 46.75986455]}, "properties": {"title": "Box Canyon Trailhead", "description": "Trailhead | parking: unknown/none", "marker-color": "#1F6AA5", "marker-symbol": "point"}}, {"type": "Feature", "geometry": {"type": "Point", "coordinates": [-121.5752505, 46.99502889]}, "properties": {"title": "Buck Creek", "description": "Trailhead | parking: unknown/none", "marker-color": "#1F6AA5", "marker-symbol": "point"}}, {"type": "Feature", "geometry": {"type": "Point", "coordinates": [-121.9156493, 46.99491966]}, "properties": {"title": "Carbon River Entrance Trailhead (Inaccessible until further notice)", "description": "Trailhead | parking: unknown/none", "marker-color": "#1F6AA5", "marker-symbol": "point"}}, {"type": "Feature", "geometry": {"type": "Point", "coordinates": [-121.8442467, 46.99042359]}, "properties": {"title": "Chenuis Falls Trailhead (Inaccessible until further notice)", "description": "Trailhead | parking: unknown/none", "marker-color": "#1F6AA5", "marker-symbol": "point"}}, {"type": "Feature", "geometry": {"type": "Point", "coordinates": [-121.5154306, 46.87174267]}, "properties": {"title": "Chinook Pass Trailhead - USFS", "description": "Trailhead | parking: unknown/none", "marker-color": "#1F6AA5", "marker-symbol": "point"}}, {"type": "Feature", "geometry": {"type": "Point", "coordinates": [-121.7824863, 46.77903123]}, "properties": {"title": "Comet Falls Trailhead", "description": "Trailhead | parking: unknown/none", "marker-color": "#1F6AA5", "marker-symbol": "point"}}, {"type": "Feature", "geometry": {"type": "Point", "coordinates": [-121.7911353, 46.76668163]}, "properties": {"title": "Cougar Rock Trailhead", "description": "Trailhead | parking: unknown/none", "marker-color": "#1F6AA5", "marker-symbol": "point"}}, {"type": "Feature", "geometry": {"type": "Point", "coordinates": [-121.5335483, 46.92281206]}, "properties": {"title": "Crystal Lakes Trailhead", "description": "Trailhead | parking: unknown/none", "marker-color": "#1F6AA5", "marker-symbol": "point"}}, {"type": "Feature", "geometry": {"type": "Point", "coordinates": [-121.535451, 46.83382158]}, "properties": {"title": "Deer Creek Trailhead", "description": "Trailhead | parking: unknown/none", "marker-color": "#1F6AA5", "marker-symbol": "point"}}, {"type": "Feature", "geometry": {"type": "Point", "coordinates": [-121.8079248, 46.74809908]}, "properties": {"title": "Eagle Peak Trailhead", "description": "Trailhead | parking: unknown/none", "marker-color": "#1F6AA5", "marker-symbol": "point"}}, {"type": "Feature", "geometry": {"type": "Point", "coordinates": [-121.5322821, 46.86428817]}, "properties": {"title": "Eastside/Cayuse Trailhead", "description": "Trailhead | parking: unknown/none", "marker-color": "#1F6AA5", "marker-symbol": "point"}}, {"type": "Feature", "geometry": {"type": "Point", "coordinates": [-121.6108351, 46.88830141]}, "properties": {"title": "Fryingpan Creek Trailhead", "description": "Trailhead | parking: unknown/none", "marker-color": "#1F6AA5", "marker-symbol": "point"}}, {"type": "Feature", "geometry": {"type": "Point", "coordinates": [-121.918425, 46.79266346]}, "properties": {"title": "Goat Lake Trailhead - USFS", "description": "Trailhead | parking: unknown/none", "marker-color": "#1F6AA5", "marker-symbol": "point"}}, {"type": "Feature", "geometry": {"type": "Point", "coordinates": [-121.9181883, 46.89963688]}, "properties": {"title": "Golden Lakes (Hancock Access)", "description": "Trailhead | parking: unknown/none", "marker-color": "#1F6AA5", "marker-symbol": "point"}}, {"type": "Feature", "geometry": {"type": "Point", "coordinates": [-121.8507832, 46.99217667]}, "properties": {"title": "Green Lake Trailhead (Inaccessible until further notice)", "description": "Trailhead | parking: unknown/none", "marker-color": "#1F6AA5", "marker-symbol": "point"}}, {"type": "Feature", "geometry": {"type": "Point", "coordinates": [-121.5576187, 46.75816748]}, "properties": {"title": "Grove of the Patriarchs Trailhead", "description": "Trailhead | parking: unknown/none", "marker-color": "#1F6AA5", "marker-symbol": "point"}}, {"type": "Feature", "geometry": {"type": "Point", "coordinates": [-121.6180901, 46.99515772]}, "properties": {"title": "Huckleberry Creek Trailhead - USFS", "description": "Trailhead | parking: unknown/none", "marker-color": "#1F6AA5", "marker-symbol": "point"}}, {"type": "Feature", "geometry": {"type": "Point", "coordinates": [-121.8307824, 46.97665364]}, "properties": {"title": "Ipsut Creek Trailhead (Inaccessible until further notice)", "description": "Trailhead | parking: unknown/none", "marker-color": "#1F6AA5", "marker-symbol": "point"}}, {"type": "Feature", "geometry": {"type": "Point", "coordinates": [-121.8557757, 46.73633552]}, "properties": {"title": "Kautz Creek Trailhead", "description": "Trailhead | parking: unknown/none", "marker-color": "#1F6AA5", "marker-symbol": "point"}}, {"type": "Feature", "geometry": {"type": "Point", "coordinates": [-121.9187128, 46.84848724]}, "properties": {"title": "Klapatche Point Trailhead", "description": "Trailhead | parking: unknown/none", "marker-color": "#1F6AA5", "marker-symbol": "point"}}, {"type": "Feature", "geometry": {"type": "Point", "coordinates": [-121.6446035, 46.99547448]}, "properties": {"title": "Lake Eleanor Trailhead  - USFS", "description": "Trailhead | parking: unknown/none", "marker-color": "#1F6AA5", "marker-symbol": "point"}}, {"type": "Feature", "geometry": {"type": "Point", "coordinates": [-121.5583822, 46.75092816]}, "properties": {"title": "Laughingwater Creek Trailhead", "description": "Trailhead | parking: unknown/none", "marker-color": "#1F6AA5", "marker-symbol": "point"}}, {"type": "Feature", "geometry": {"type": "Point", "coordinates": [-121.8118453, 46.75170357]}, "properties": {"title": "Longmire Trailhead", "description": "Trailhead | parking: unknown/none", "marker-color": "#1F6AA5", "marker-symbol": "point"}}, {"type": "Feature", "geometry": {"type": "Point", "coordinates": [-121.8637484, 46.93298568]}, "properties": {"title": "Mowich Lake Trailhead (Inaccessible until further notice)", "description": "Trailhead | parking: unknown/none", "marker-color": "#1F6AA5", "marker-symbol": "point"}}, {"type": "Feature", "geometry": {"type": "Point", "coordinates": [-121.7442946, 46.77545062]}, "properties": {"title": "Narada Falls Trailhead", "description": "Trailhead | parking: unknown/none", "marker-color": "#1F6AA5", "marker-symbol": "point"}}, {"type": "Feature", "geometry": {"type": "Point", "coordinates": [-121.9179302, 46.74150772]}, "properties": {"title": "Nisqually Entrance Trailhead", "description": "Trailhead | parking: unknown/none", "marker-color": "#1F6AA5", "marker-symbol": "point"}}, {"type": "Feature", "geometry": {"type": "Point", "coordinates": [-121.5363699, 46.97798962]}, "properties": {"title": "North Boundary (Winter)", "description": "Trailhead | parking: unknown/none", "marker-color": "#1F6AA5", "marker-symbol": "point"}}, {"type": "Feature", "geometry": {"type": "Point", "coordinates": [-121.5647328, 46.73728862]}, "properties": {"title": "Ohanapecosh Trailhead", "description": "Trailhead | parking: unknown/none", "marker-color": "#1F6AA5", "marker-symbol": "point"}}, {"type": "Feature", "geometry": {"type": "Point", "coordinates": [-121.563085, 46.75637789]}, "properties": {"title": "Ollallie Creek Trailhead", "description": "Trailhead | parking: unknown/none", "marker-color": "#1F6AA5", "marker-symbol": "point"}}, {"type": "Feature", "geometry": {"type": "Point", "coordinates": [-121.5967334, 46.89055921]}, "properties": {"title": "Owyhigh Lakes Trailhead", "description": "Trailhead | parking: unknown/none", "marker-color": "#1F6AA5", "marker-symbol": "point"}}, {"type": "Feature", "geometry": {"type": "Point", "coordinates": [-121.7415196, 46.78457231]}, "properties": {"title": "Paradise Trailhead", "description": "Trailhead | parking: unknown/none", "marker-color": "#1F6AA5", "marker-symbol": "point"}}, {"type": "Feature", "geometry": {"type": "Point", "coordinates": [-121.9074177, 46.93509819]}, "properties": {"title": "Paul Peak Trailhead (Inaccessible until further notice)", "description": "Trailhead | parking: unknown/none", "marker-color": "#1F6AA5", "marker-symbol": "point"}}, {"type": "Feature", "geometry": {"type": "Point", "coordinates": [-121.7316437, 46.76850323]}, "properties": {"title": "Pinnacle Peak Trailhead", "description": "Trailhead | parking: unknown/none", "marker-color": "#1F6AA5", "marker-symbol": "point"}}, {"type": "Feature", "geometry": {"type": "Point", "coordinates": [-121.7239475, 46.76888564]}, "properties": {"title": "Reflection Lake Trailhead", "description": "Trailhead | parking: unknown/none", "marker-color": "#1F6AA5", "marker-symbol": "point"}}, {"type": "Feature", "geometry": {"type": "Point", "coordinates": [-121.8985618, 46.80166195]}, "properties": {"title": "Round Pass Trailhead", "description": "Trailhead | parking: unknown/none", "marker-color": "#1F6AA5", "marker-symbol": "point"}}, {"type": "Feature", "geometry": {"type": "Point", "coordinates": [-121.9060085, 46.83624928]}, "properties": {"title": "Saint Andrew's Creek Trailhead", "description": "Trailhead | parking: unknown/none", "marker-color": "#1F6AA5", "marker-symbol": "point"}}, {"type": "Feature", "geometry": {"type": "Point", "coordinates": [-121.5555446, 46.80179223]}, "properties": {"title": "Shriner Peak Trailhead", "description": "Trailhead | parking: unknown/none", "marker-color": "#1F6AA5", "marker-symbol": "point"}}, {"type": "Feature", "geometry": {"type": "Point", "coordinates": [-121.8912838, 46.80682009]}, "properties": {"title": "South Puyallup Trailhead", "description": "Trailhead | parking: unknown/none", "marker-color": "#1F6AA5", "marker-symbol": "point"}}, {"type": "Feature", "geometry": {"type": "Point", "coordinates": [-121.587896, 46.91751074]}, "properties": {"title": "Sunrise Point Trailhead", "description": "Trailhead | parking: unknown/none", "marker-color": "#1F6AA5", "marker-symbol": "point"}}, {"type": "Feature", "geometry": {"type": "Point", "coordinates": [-121.6428307, 46.9149308]}, "properties": {"title": "Sunrise Trailhead", "description": "Trailhead | parking: unknown/none", "marker-color": "#1F6AA5", "marker-symbol": "point"}}, {"type": "Feature", "geometry": {"type": "Point", "coordinates": [-121.5184089, 46.86749766]}, "properties": {"title": "Tipsoo Lake Trailhead", "description": "Trailhead | parking: unknown/none", "marker-color": "#1F6AA5", "marker-symbol": "point"}}, {"type": "Feature", "geometry": {"type": "Point", "coordinates": [-121.8657761, 46.93413066]}, "properties": {"title": "Tolmie Peak Trailhead (Inaccessible until further notice)", "description": "Trailhead | parking: unknown/none", "marker-color": "#1F6AA5", "marker-symbol": "point"}}, {"type": "Feature", "geometry": {"type": "Point", "coordinates": [-121.6996867, 46.99551449]}, "properties": {"title": "West Fork White River", "description": "Trailhead | parking: unknown/none", "marker-color": "#1F6AA5", "marker-symbol": "point"}}, {"type": "Feature", "geometry": {"type": "Point", "coordinates": [-121.8847658, 46.77859404]}, "properties": {"title": "West Side Road Trailhead (Dry Creek)", "description": "Trailhead | parking: unknown/none", "marker-color": "#1F6AA5", "marker-symbol": "point"}}, {"type": "Feature", "geometry": {"type": "Point", "coordinates": [-121.6434432, 46.90237091]}, "properties": {"title": "White River Campground Trailhead", "description": "Trailhead | parking: unknown/none", "marker-color": "#1F6AA5", "marker-symbol": "point"}}, {"type": "Feature", "geometry": {"type": "Point", "coordinates": [-121.9614, 46.9871]}, "properties": {"title": "Carbon River Ranger Station", "description": "Trailhead | parking: unknown/none", "marker-color": "#1F6AA5", "marker-symbol": "point"}}, {"type": "Feature", "geometry": {"type": "Point", "coordinates": [-121.7364, 46.7859]}, "properties": {"title": "Jackson Visitor Center", "description": "Trailhead | parking: unknown/none", "marker-color": "#1F6AA5", "marker-symbol": "point"}}, {"type": "Feature", "geometry": {"type": "Point", "coordinates": [-121.8123, 46.7498]}, "properties": {"title": "Longmire Museum (Winter)", "description": "Trailhead | parking: unknown/none", "marker-color": "#1F6AA5", "marker-symbol": "point"}}, {"type": "Feature", "geometry": {"type": "Point", "coordinates": [-121.8118, 46.7502]}, "properties": {"title": "Longmire Wilderness Information Center", "description": "Trailhead | parking: unknown/none", "marker-color": "#1F6AA5", "marker-symbol": "point"}}, {"type": "Feature", "geometry": {"type": "Point", "coordinates": [-121.9169, 46.741]}, "properties": {"title": "Nisqually Entrance Station", "description": "Trailhead | parking: unknown/none", "marker-color": "#1F6AA5", "marker-symbol": "point"}}, {"type": "Feature", "geometry": {"type": "Point", "coordinates": [-121.5659, 46.7359]}, "properties": {"title": "Ohanapecosh Visitor Center", "description": "Trailhead | parking: unknown/none", "marker-color": "#1F6AA5", "marker-symbol": "point"}}, {"type": "Feature", "geometry": {"type": "Point", "coordinates": [-121.5711, 46.7322]}, "properties": {"title": "Ohanapecosh Ranger Station", "description": "Trailhead | parking: unknown/none", "marker-color": "#1F6AA5", "marker-symbol": "point"}}, {"type": "Feature", "geometry": {"type": "Point", "coordinates": [-121.7353, 46.7865]}, "properties": {"title": "Paradise Wilderness Information Center", "description": "Trailhead | parking: unknown/none", "marker-color": "#1F6AA5", "marker-symbol": "point"}}, {"type": "Feature", "geometry": {"type": "Point", "coordinates": [-121.7354, 46.7862]}, "properties": {"title": "Paradise Old Station", "description": "Trailhead | parking: unknown/none", "marker-color": "#1F6AA5", "marker-symbol": "point"}}, {"type": "Feature", "geometry": {"type": "Point", "coordinates": [-121.6434, 46.9145]}, "properties": {"title": "Sunrise Visitor Center", "description": "Trailhead | parking: unknown/none", "marker-color": "#1F6AA5", "marker-symbol": "point"}}, {"type": "Feature", "geometry": {"type": "Point", "coordinates": [-121.6417, 46.9148]}, "properties": {"title": "Sunrise Ranger Station", "description": "Trailhead | parking: unknown/none", "marker-color": "#1F6AA5", "marker-symbol": "point"}}, {"type": "Feature", "geometry": {"type": "Point", "coordinates": [-121.5547, 46.9021]}, "properties": {"title": "White River Wilderness Information Center", "description": "Trailhead | parking: unknown/none", "marker-color": "#1F6AA5", "marker-symbol": "point"}}]}